{
  "type": "FeatureCollection",
  "generator": "overpass-ide",
  "copyright": "The data included in this document is from www.openstreetmap.org. The data is made available under ODbL.",
  "timestamp": "2023-09-19T13:16:02Z",
  "features": [
    {
      "type": "Feature",
      "properties": {
        "@id": "node/262700827",
        "entrance": "yes",
        "foot": "private",
        "level": "1"
      },
      "geometry": {
        "type": "Point",
        "coordinates": [
          13.473847,
          52.4616596
        ]
      },
      "id": "node/262700827"
    },
    {
      "type": "Feature",
      "properties": {
        "@id": "node/262700828",
        "entrance": "yes",
        "foot": "private"
      },
      "geometry": {
        "type": "Point",
        "coordinates": [
          13.475285,
          52.4616614
        ]
      },
      "id": "node/262700828"
    },
    {
      "type": "Feature",
      "properties": {
        "@id": "node/268917263",
        "addr:city": "Berlin",
        "addr:country": "DE",
        "addr:housenumber": "17",
        "addr:postcode": "10961",
        "addr:street": "Johanniterstraße",
        "addr:suburb": "Kreuzberg",
        "entrance": "yes"
      },
      "geometry": {
        "type": "Point",
        "coordinates": [
          13.4001987,
          52.4962525
        ]
      },
      "id": "node/268917263"
    },
    {
      "type": "Feature",
      "properties": {
        "@id": "node/268917668",
        "addr:city": "Berlin",
        "addr:country": "DE",
        "addr:housenumber": "72",
        "addr:postcode": "12043",
        "addr:street": "Reuterstraße",
        "addr:suburb": "Neukölln",
        "entrance": "yes"
      },
      "geometry": {
        "type": "Point",
        "coordinates": [
          13.4286991,
          52.4853686
        ]
      },
      "id": "node/268917668"
    },
    {
      "type": "Feature",
      "properties": {
        "@id": "node/278958963",
        "addr:city": "Berlin",
        "addr:country": "DE",
        "addr:housenumber": "6",
        "addr:postcode": "12055",
        "addr:street": "Richardplatz",
        "addr:suburb": "Neukölln",
        "amenity": "restaurant",
        "check_date:opening_hours": "2023-05-07",
        "diet:vegetarian": "yes",
        "entrance": "main",
        "indoor_seating": "yes",
        "name": "Restaurant Villa Rixdorf",
        "opening_hours": "Mo-Su 11:00-01:00",
        "outdoor_seating": "yes",
        "phone": "+49 30 68086000",
        "source": "Geoportal Berlin / Hauskoordinaten",
        "website": "http://www.villa-rixdorf.com",
        "wheelchair": "no"
      },
      "geometry": {
        "type": "Point",
        "coordinates": [
          13.4447503,
          52.4742277
        ]
      },
      "id": "node/278958963"
    },
    {
      "type": "Feature",
      "properties": {
        "@id": "node/282030130",
        "entrance": "yes",
        "entrance_marker:s-train": "yes"
      },
      "geometry": {
        "type": "Point",
        "coordinates": [
          13.4613915,
          52.4939612
        ]
      },
      "id": "node/282030130"
    },
    {
      "type": "Feature",
      "properties": {
        "@id": "node/287525720",
        "entrance": "yes"
      },
      "geometry": {
        "type": "Point",
        "coordinates": [
          13.4278949,
          52.4933801
        ]
      },
      "id": "node/287525720"
    },
    {
      "type": "Feature",
      "properties": {
        "@id": "node/291554580",
        "check_date:wheelchair": "2021-09-24",
        "entrance_marker:s-train": "yes",
        "entrance_marker:subway": "yes",
        "name": "Neukölln",
        "public_transport": "entrance",
        "railway": "subway_entrance",
        "wheelchair": "no"
      },
      "geometry": {
        "type": "Point",
        "coordinates": [
          13.4418988,
          52.4695953
        ]
      },
      "id": "node/291554580"
    },
    {
      "type": "Feature",
      "properties": {
        "@id": "node/291555141",
        "entrance_marker:subway": "yes",
        "name": "Neukölln",
        "public_transport": "entrance",
        "railway": "subway_entrance",
        "wheelchair": "no"
      },
      "geometry": {
        "type": "Point",
        "coordinates": [
          13.4422791,
          52.4677971
        ]
      },
      "id": "node/291555141"
    },
    {
      "type": "Feature",
      "properties": {
        "@id": "node/313198742",
        "entrance": "yes",
        "entrance_marker:s-train": "yes",
        "wheelchair": "no"
      },
      "geometry": {
        "type": "Point",
        "coordinates": [
          13.4669492,
          52.4696609
        ]
      },
      "id": "node/313198742"
    },
    {
      "type": "Feature",
      "properties": {
        "@id": "node/329274934",
        "entrance": "main",
        "entrance_marker:s-train": "yes"
      },
      "geometry": {
        "type": "Point",
        "coordinates": [
          13.4737143,
          52.478696
        ]
      },
      "id": "node/329274934"
    },
    {
      "type": "Feature",
      "properties": {
        "@id": "node/331344886",
        "entrance": "yes",
        "entrance_marker:subway": "yes",
        "name": "Hermannplatz",
        "railway": "subway_entrance",
        "wheelchair": "no"
      },
      "geometry": {
        "type": "Point",
        "coordinates": [
          13.4228408,
          52.4869238
        ]
      },
      "id": "node/331344886"
    },
    {
      "type": "Feature",
      "properties": {
        "@id": "node/331344887",
        "check_date:wheelchair": "2022-05-20",
        "entrance": "yes",
        "entrance_marker:subway": "yes",
        "name": "Hermannplatz",
        "railway": "subway_entrance",
        "wheelchair": "no"
      },
      "geometry": {
        "type": "Point",
        "coordinates": [
          13.4228143,
          52.4866658
        ]
      },
      "id": "node/331344887"
    },
    {
      "type": "Feature",
      "properties": {
        "@id": "node/331344888",
        "check_date:wheelchair": "2022-05-24",
        "entrance": "yes",
        "entrance_marker:subway": "yes",
        "name": "Hermannplatz",
        "railway": "subway_entrance",
        "wheelchair": "no"
      },
      "geometry": {
        "type": "Point",
        "coordinates": [
          13.4251678,
          52.4861094
        ]
      },
      "id": "node/331344888"
    },
    {
      "type": "Feature",
      "properties": {
        "@id": "node/331344889",
        "check_date:wheelchair": "2022-05-24",
        "entrance": "yes",
        "entrance_marker:subway": "yes",
        "name": "Hermannplatz",
        "railway": "subway_entrance",
        "wheelchair": "no"
      },
      "geometry": {
        "type": "Point",
        "coordinates": [
          13.4249102,
          52.4859704
        ]
      },
      "id": "node/331344889"
    },
    {
      "type": "Feature",
      "properties": {
        "@id": "node/343306506",
        "entrance": "main"
      },
      "geometry": {
        "type": "Point",
        "coordinates": [
          13.4058064,
          52.4979319
        ]
      },
      "id": "node/343306506"
    },
    {
      "type": "Feature",
      "properties": {
        "@id": "node/343531241",
        "door": "no",
        "entrance": "yes",
        "entrance_marker:subway": "yes",
        "name": "Boddinstraße",
        "railway": "subway_entrance",
        "wheelchair": "no",
        "width": "270 cm"
      },
      "geometry": {
        "type": "Point",
        "coordinates": [
          13.4255235,
          52.4793868
        ]
      },
      "id": "node/343531241"
    },
    {
      "type": "Feature",
      "properties": {
        "@id": "node/343531612",
        "entrance": "yes",
        "entrance_marker:subway": "yes",
        "name": "Boddinstraße",
        "railway": "subway_entrance",
        "wheelchair": "no"
      },
      "geometry": {
        "type": "Point",
        "coordinates": [
          13.4250166,
          52.4809628
        ]
      },
      "id": "node/343531612"
    },
    {
      "type": "Feature",
      "properties": {
        "@id": "node/364549847",
        "entrance": "main",
        "entrance_marker:s-train": "yes",
        "wheelchair": "yes"
      },
      "geometry": {
        "type": "Point",
        "coordinates": [
          13.4671272,
          52.4690977
        ]
      },
      "id": "node/364549847"
    },
    {
      "type": "Feature",
      "properties": {
        "@id": "node/365361933",
        "addr:city": "Berlin",
        "addr:country": "DE",
        "addr:housenumber": "36",
        "addr:postcode": "10245",
        "addr:street": "Corinthstraße",
        "addr:suburb": "Friedrichshain",
        "entrance": "yes"
      },
      "geometry": {
        "type": "Point",
        "coordinates": [
          13.4607923,
          52.5000989
        ]
      },
      "id": "node/365361933"
    },
    {
      "type": "Feature",
      "properties": {
        "@id": "node/366322599",
        "access": "private",
        "addr:city": "Berlin",
        "addr:country": "DE",
        "addr:housenumber": "29",
        "addr:postcode": "10245",
        "addr:street": "Friedrich-Junge-Straße",
        "addr:suburb": "Friedrichshain",
        "entrance": "yes"
      },
      "geometry": {
        "type": "Point",
        "coordinates": [
          13.4738589,
          52.49669
        ]
      },
      "id": "node/366322599"
    },
    {
      "type": "Feature",
      "properties": {
        "@id": "node/366765010",
        "access": "private",
        "addr:city": "Berlin",
        "addr:country": "DE",
        "addr:housenumber": "27",
        "addr:postcode": "10245",
        "addr:street": "Friedrich-Junge-Straße",
        "addr:suburb": "Friedrichshain",
        "entrance": "yes"
      },
      "geometry": {
        "type": "Point",
        "coordinates": [
          13.4737406,
          52.4965606
        ]
      },
      "id": "node/366765010"
    },
    {
      "type": "Feature",
      "properties": {
        "@id": "node/366765012",
        "access": "private",
        "addr:city": "Berlin",
        "addr:country": "DE",
        "addr:housenumber": "25",
        "addr:postcode": "10245",
        "addr:street": "Friedrich-Junge-Straße",
        "addr:suburb": "Friedrichshain",
        "entrance": "yes"
      },
      "geometry": {
        "type": "Point",
        "coordinates": [
          13.4735917,
          52.4963865
        ]
      },
      "id": "node/366765012"
    },
    {
      "type": "Feature",
      "properties": {
        "@id": "node/367119996",
        "addr:city": "Berlin",
        "addr:country": "DE",
        "addr:housenumber": "75",
        "addr:postcode": "12057",
        "addr:street": "Neuköllnische Allee",
        "addr:suburb": "Neukölln",
        "entrance": "yes"
      },
      "geometry": {
        "type": "Point",
        "coordinates": [
          13.4645696,
          52.466258
        ]
      },
      "id": "node/367119996"
    },
    {
      "type": "Feature",
      "properties": {
        "@id": "node/367119997",
        "addr:city": "Berlin",
        "addr:country": "DE",
        "addr:housenumber": "77",
        "addr:postcode": "12057",
        "addr:street": "Neuköllnische Allee",
        "addr:suburb": "Neukölln",
        "entrance": "yes"
      },
      "geometry": {
        "type": "Point",
        "coordinates": [
          13.464681,
          52.4661952
        ]
      },
      "id": "node/367119997"
    },
    {
      "type": "Feature",
      "properties": {
        "@id": "node/367119998",
        "addr:city": "Berlin",
        "addr:country": "DE",
        "addr:housenumber": "79",
        "addr:postcode": "12057",
        "addr:street": "Neuköllnische Allee",
        "addr:suburb": "Neukölln",
        "entrance": "yes"
      },
      "geometry": {
        "type": "Point",
        "coordinates": [
          13.4648066,
          52.4661245
        ]
      },
      "id": "node/367119998"
    },
    {
      "type": "Feature",
      "properties": {
        "@id": "node/367119999",
        "addr:city": "Berlin",
        "addr:country": "DE",
        "addr:housenumber": "81",
        "addr:postcode": "12057",
        "addr:street": "Neuköllnische Allee",
        "addr:suburb": "Neukölln",
        "entrance": "yes"
      },
      "geometry": {
        "type": "Point",
        "coordinates": [
          13.4649493,
          52.466044
        ]
      },
      "id": "node/367119999"
    },
    {
      "type": "Feature",
      "properties": {
        "@id": "node/367120201",
        "addr:city": "Berlin",
        "addr:country": "DE",
        "addr:housenumber": "89",
        "addr:postcode": "12057",
        "addr:street": "Neuköllnische Allee",
        "addr:suburb": "Neukölln",
        "entrance": "yes"
      },
      "geometry": {
        "type": "Point",
        "coordinates": [
          13.4655905,
          52.4656047
        ]
      },
      "id": "node/367120201"
    },
    {
      "type": "Feature",
      "properties": {
        "@id": "node/367120202",
        "addr:city": "Berlin",
        "addr:country": "DE",
        "addr:housenumber": "87",
        "addr:postcode": "12057",
        "addr:street": "Neuköllnische Allee",
        "addr:suburb": "Neukölln",
        "entrance": "yes"
      },
      "geometry": {
        "type": "Point",
        "coordinates": [
          13.4654626,
          52.4656784
        ]
      },
      "id": "node/367120202"
    },
    {
      "type": "Feature",
      "properties": {
        "@id": "node/367120203",
        "addr:city": "Berlin",
        "addr:country": "DE",
        "addr:housenumber": "85",
        "addr:postcode": "12057",
        "addr:street": "Neuköllnische Allee",
        "addr:suburb": "Neukölln",
        "entrance": "yes"
      },
      "geometry": {
        "type": "Point",
        "coordinates": [
          13.4653116,
          52.4657654
        ]
      },
      "id": "node/367120203"
    },
    {
      "type": "Feature",
      "properties": {
        "@id": "node/367120204",
        "addr:city": "Berlin",
        "addr:country": "DE",
        "addr:housenumber": "83",
        "addr:postcode": "12057",
        "addr:street": "Neuköllnische Allee",
        "addr:suburb": "Neukölln",
        "entrance": "yes"
      },
      "geometry": {
        "type": "Point",
        "coordinates": [
          13.4651522,
          52.4658572
        ]
      },
      "id": "node/367120204"
    },
    {
      "type": "Feature",
      "properties": {
        "@id": "node/368297739",
        "addr:city": "Berlin",
        "addr:country": "DE",
        "addr:housenumber": "60",
        "addr:postcode": "10245",
        "addr:street": "Alt-Stralau",
        "addr:suburb": "Friedrichshain",
        "entrance": "yes"
      },
      "geometry": {
        "type": "Point",
        "coordinates": [
          13.4681852,
          52.4955861
        ]
      },
      "id": "node/368297739"
    },
    {
      "type": "Feature",
      "properties": {
        "@id": "node/368297742",
        "addr:city": "Berlin",
        "addr:country": "DE",
        "addr:housenumber": "61",
        "addr:postcode": "10245",
        "addr:street": "Alt-Stralau",
        "addr:suburb": "Friedrichshain",
        "entrance": "yes"
      },
      "geometry": {
        "type": "Point",
        "coordinates": [
          13.4678129,
          52.4958383
        ]
      },
      "id": "node/368297742"
    },
    {
      "type": "Feature",
      "properties": {
        "@id": "node/385232525",
        "addr:city": "Berlin",
        "addr:country": "DE",
        "addr:housenumber": "73",
        "addr:postcode": "10245",
        "addr:street": "Modersohnstraße",
        "addr:suburb": "Friedrichshain",
        "entrance": "yes"
      },
      "geometry": {
        "type": "Point",
        "coordinates": [
          13.4564669,
          52.5008713
        ]
      },
      "id": "node/385232525"
    },
    {
      "type": "Feature",
      "properties": {
        "@id": "node/385232532",
        "addr:city": "Berlin",
        "addr:country": "DE",
        "addr:housenumber": "15",
        "addr:postcode": "10245",
        "addr:street": "Rochowstraße",
        "addr:suburb": "Friedrichshain",
        "entrance": "yes"
      },
      "geometry": {
        "type": "Point",
        "coordinates": [
          13.4580433,
          52.5008964
        ]
      },
      "id": "node/385232532"
    },
    {
      "type": "Feature",
      "properties": {
        "@id": "node/385232534",
        "addr:city": "Berlin",
        "addr:country": "DE",
        "addr:housenumber": "22",
        "addr:postcode": "10245",
        "addr:street": "Rochowstraße",
        "addr:suburb": "Friedrichshain",
        "entrance": "yes"
      },
      "geometry": {
        "type": "Point",
        "coordinates": [
          13.4573793,
          52.500641
        ]
      },
      "id": "node/385232534"
    },
    {
      "type": "Feature",
      "properties": {
        "@id": "node/385232535",
        "addr:city": "Berlin",
        "addr:country": "DE",
        "addr:housenumber": "20",
        "addr:postcode": "10245",
        "addr:street": "Rochowstraße",
        "addr:suburb": "Friedrichshain",
        "entrance": "yes"
      },
      "geometry": {
        "type": "Point",
        "coordinates": [
          13.457778,
          52.5005291
        ]
      },
      "id": "node/385232535"
    },
    {
      "type": "Feature",
      "properties": {
        "@id": "node/385232536",
        "addr:city": "Berlin",
        "addr:country": "DE",
        "addr:housenumber": "24",
        "addr:postcode": "10245",
        "addr:street": "Rochowstraße",
        "addr:suburb": "Friedrichshain",
        "entrance": "yes"
      },
      "geometry": {
        "type": "Point",
        "coordinates": [
          13.456988,
          52.5007508
        ]
      },
      "id": "node/385232536"
    },
    {
      "type": "Feature",
      "properties": {
        "@id": "node/385232537",
        "addr:city": "Berlin",
        "addr:country": "DE",
        "addr:housenumber": "23",
        "addr:postcode": "10245",
        "addr:street": "Rochowstraße",
        "addr:suburb": "Friedrichshain",
        "entrance": "yes"
      },
      "geometry": {
        "type": "Point",
        "coordinates": [
          13.4571769,
          52.5006978
        ]
      },
      "id": "node/385232537"
    },
    {
      "type": "Feature",
      "properties": {
        "@id": "node/385232538",
        "addr:city": "Berlin",
        "addr:country": "DE",
        "addr:housenumber": "21",
        "addr:postcode": "10245",
        "addr:street": "Rochowstraße",
        "addr:suburb": "Friedrichshain",
        "entrance": "yes"
      },
      "geometry": {
        "type": "Point",
        "coordinates": [
          13.4575888,
          52.5005822
        ]
      },
      "id": "node/385232538"
    },
    {
      "type": "Feature",
      "properties": {
        "@id": "node/419806819",
        "entrance": "yes",
        "entrance_marker:s-train": "yes",
        "name": "Treptower Park / Westeingang",
        "name:en": "Treptower Park / West Entrance"
      },
      "geometry": {
        "type": "Point",
        "coordinates": [
          13.4615334,
          52.4930397
        ]
      },
      "id": "node/419806819"
    },
    {
      "type": "Feature",
      "properties": {
        "@id": "node/420448902",
        "addr:city": "Berlin",
        "addr:country": "DE",
        "addr:housenumber": "29",
        "addr:postcode": "10967",
        "addr:street": "Grimmstraße",
        "addr:suburb": "Kreuzberg",
        "entrance": "yes",
        "wheelchair": "no"
      },
      "geometry": {
        "type": "Point",
        "coordinates": [
          13.4155958,
          52.4947069
        ]
      },
      "id": "node/420448902"
    },
    {
      "type": "Feature",
      "properties": {
        "@id": "node/431622793",
        "access": "yes",
        "barrier": "gate",
        "emergency": "designated",
        "entrance": "yes",
        "motor_vehicle": "private",
        "name": "Haupteingang Tor 5 Columbiadamm",
        "note": "Bei Änderungen der Öffnungszeiten diese bitte jeweils an allen 10 Eingängen zum Tempelhofer Feld anpassen.",
        "opening_hours": "Dec-Jan 07:30-17:00; Feb,Nov 07:00-18:00; Mar 06:00-19:00; Apr 06:00-20:30; May 1-15 06:00-21:30; May 16-31 06:00-22:00; Jun-Jul 06:00-23:00; Aug 06:00-22:30; Sep 06:30-21:30; Oct 07:00-19:00",
        "opening_hours:url": "http://www.tempelhofer-park.de/oeffnungszeiten/"
      },
      "geometry": {
        "type": "Point",
        "coordinates": [
          13.4072384,
          52.4822832
        ]
      },
      "id": "node/431622793"
    },
    {
      "type": "Feature",
      "properties": {
        "@id": "node/436241124",
        "access": "yes",
        "barrier": "gate",
        "emergency": "yes",
        "entrance": "yes",
        "motor_vehicle": "private",
        "name": "Haupteingang Oderstraße",
        "note": "Bei Änderungen der Öffnungszeiten diese bitte jeweils an allen 10 Eingängen zum Tempelhofer Feld anpassen.",
        "opening_hours": "Dec-Jan 07:30-17:00; Feb,Nov 07:00-18:00; Mar 06:00-19:00; Apr 06:00-20:30; May 1-15 06:00-21:30; May 16-31 06:00-22:00; Jun-Jul 06:00-23:00; Aug 06:00-22:30; Sep 06:30-21:30; Oct 07:00-19:00",
        "opening_hours:url": "http://www.tempelhofer-park.de/oeffnungszeiten/"
      },
      "geometry": {
        "type": "Point",
        "coordinates": [
          13.4183696,
          52.4766604
        ]
      },
      "id": "node/436241124"
    },
    {
      "type": "Feature",
      "properties": {
        "@id": "node/436242810",
        "access": "yes",
        "barrier": "gate",
        "entrance": "yes",
        "motor_vehicle": "no",
        "note": "Bei Änderungen der Öffnungszeiten diese bitte jeweils an allen 10 Eingängen zum Tempelhofer Feld anpassen.",
        "opening_hours": "Dec-Jan 07:30-17:00; Feb,Nov 07:00-18:00; Mar 06:00-19:00; Apr 06:00-20:30; May 1-15 06:00-21:30; May 16-31 06:00-22:00; Jun-Jul 06:00-23:00; Aug 06:00-22:30; Sep 06:30-21:30; Oct 07:00-19:00",
        "opening_hours:url": "http://www.tempelhofer-park.de/oeffnungszeiten/"
      },
      "geometry": {
        "type": "Point",
        "coordinates": [
          13.4191813,
          52.4742289
        ]
      },
      "id": "node/436242810"
    },
    {
      "type": "Feature",
      "properties": {
        "@id": "node/441514946",
        "amenity": "fast_food",
        "cuisine": "kebab",
        "entrance": "yes",
        "name": "Haci Gemüse Kebap",
        "phone": "+49 30 55952376",
        "wheelchair": "no"
      },
      "geometry": {
        "type": "Point",
        "coordinates": [
          13.4254935,
          52.4787083
        ]
      },
      "id": "node/441514946"
    },
    {
      "type": "Feature",
      "properties": {
        "@id": "node/445821360",
        "addr:city": "Berlin",
        "addr:country": "DE",
        "addr:housenumber": "42",
        "addr:postcode": "12347",
        "addr:street": "Bürgerstraße",
        "addr:suburb": "Britz",
        "breakfast": "Mo-Fr 06:30-10:00; Sa-Su 7:30-10:30",
        "contact:email": "hotelbritz@t-online.de",
        "contact:fax": "+49 30 62890320",
        "contact:phone": "+49 30 6289030",
        "contact:website": "http://www.hotelbritz.de/",
        "disused:tourism": "hotel",
        "entrance": "yes",
        "name": "Hotel Britz",
        "rooms": "32",
        "stars": "2"
      },
      "geometry": {
        "type": "Point",
        "coordinates": [
          13.439959,
          52.4619462
        ]
      },
      "id": "node/445821360"
    },
    {
      "type": "Feature",
      "properties": {
        "@id": "node/448591443",
        "addr:city": "Berlin",
        "addr:country": "DE",
        "addr:housenumber": "37",
        "addr:postcode": "10997",
        "addr:street": "Schlesische Straße",
        "addr:suburb": "Kreuzberg",
        "amenity": "pharmacy",
        "contact:phone": "+49 30 6123946",
        "contact:website": "http://www.palmen-apo.de/",
        "dispensing": "yes",
        "entrance": "yes",
        "name": "Palmen-Apotheke",
        "opening_hours": "Mo-Fr 09:00-18:30; Sa 09:00-13:00",
        "operator": "Christiane Koch",
        "wheelchair": "no"
      },
      "geometry": {
        "type": "Point",
        "coordinates": [
          13.4448618,
          52.4997229
        ]
      },
      "id": "node/448591443"
    },
    {
      "type": "Feature",
      "properties": {
        "@id": "node/459667328",
        "addr:city": "Berlin",
        "addr:country": "DE",
        "addr:housenumber": "3",
        "addr:postcode": "12435",
        "addr:street": "Elsenstraße",
        "addr:suburb": "Alt-Treptow",
        "entrance": "main"
      },
      "geometry": {
        "type": "Point",
        "coordinates": [
          13.4595754,
          52.4935394
        ]
      },
      "id": "node/459667328"
    },
    {
      "type": "Feature",
      "properties": {
        "@id": "node/466464350",
        "addr:city": "Berlin",
        "addr:country": "DE",
        "addr:housenumber": "159",
        "addr:postcode": "12051",
        "addr:street": "Hermannstraße",
        "addr:suburb": "Neukölln",
        "amenity": "pub",
        "automatic_door": "no",
        "contact:phone": "+49 30 6251077",
        "contact:website": "https://zumumsteiger.metro.bar",
        "darts": "2",
        "darts:type": "e_darts",
        "door": "hinged",
        "email": "umsteiger@mail.de",
        "entrance": "main",
        "indoor_seating": "yes",
        "jukebox": "yes",
        "level": "0",
        "name": "Das Bierlokal zum Umsteiger",
        "opening_hours": "24/7",
        "operator": "Hartmut Ruger",
        "outdoor_seating": "yes",
        "payment:cash": "yes",
        "smoking": "yes",
        "sport": "darts; billiards; table_soccer",
        "wheelchair": "yes"
      },
      "geometry": {
        "type": "Point",
        "coordinates": [
          13.4312235,
          52.4679582
        ]
      },
      "id": "node/466464350"
    },
    {
      "type": "Feature",
      "properties": {
        "@id": "node/472076707",
        "addr:city": "Berlin",
        "addr:country": "DE",
        "addr:housenumber": "5",
        "addr:postcode": "12051",
        "addr:street": "Silbersteinstraße",
        "addr:suburb": "Neukölln",
        "entrance": "main"
      },
      "geometry": {
        "type": "Point",
        "coordinates": [
          13.4411624,
          52.4674246
        ]
      },
      "id": "node/472076707"
    },
    {
      "type": "Feature",
      "properties": {
        "@id": "node/472076710",
        "entrance": "yes"
      },
      "geometry": {
        "type": "Point",
        "coordinates": [
          13.4414013,
          52.4674577
        ]
      },
      "id": "node/472076710"
    },
    {
      "type": "Feature",
      "properties": {
        "@id": "node/474954965",
        "addr:city": "Berlin",
        "addr:country": "DE",
        "addr:housenumber": "14a",
        "addr:postcode": "10999",
        "addr:street": "Wiener Straße",
        "addr:suburb": "Kreuzberg",
        "amenity": "fast_food",
        "capacity:covid19": "2",
        "contact:phone": "+49 30 30368730",
        "contact:website": "http://chaparro-berlin.de/",
        "contact:wolt": "https://wolt.com/de/deu/berlin/restaurant/chaparro",
        "cuisine": "mexican",
        "diet:vegan": "yes",
        "diet:vegetarian": "yes",
        "entrance": "yes",
        "name": "Chaparro",
        "opening_hours": "PH,Mo-Fr 12:00-22:00; Sa-Su 16:15-22:15",
        "wheelchair": "limited"
      },
      "geometry": {
        "type": "Point",
        "coordinates": [
          13.4290467,
          52.4981786
        ]
      },
      "id": "node/474954965"
    },
    {
      "type": "Feature",
      "properties": {
        "@id": "node/475616903",
        "entrance_marker:subway": "yes",
        "level": "0",
        "name": "Hermannstraße",
        "railway": "subway_entrance",
        "wheelchair": "no"
      },
      "geometry": {
        "type": "Point",
        "coordinates": [
          13.4317751,
          52.4672086
        ]
      },
      "id": "node/475616903"
    },
    {
      "type": "Feature",
      "properties": {
        "@id": "node/476162425",
        "addr:city": "Berlin",
        "addr:country": "DE",
        "addr:housenumber": "37",
        "addr:postcode": "10997",
        "addr:street": "Schlesische Straße",
        "addr:suburb": "Kreuzberg",
        "entrance": "yes"
      },
      "geometry": {
        "type": "Point",
        "coordinates": [
          13.4447719,
          52.4997705
        ]
      },
      "id": "node/476162425"
    },
    {
      "type": "Feature",
      "properties": {
        "@id": "node/476263579",
        "entrance": "yes"
      },
      "geometry": {
        "type": "Point",
        "coordinates": [
          13.441715,
          52.4705092
        ]
      },
      "id": "node/476263579"
    },
    {
      "type": "Feature",
      "properties": {
        "@id": "node/503542139",
        "addr:city": "Berlin",
        "addr:country": "DE",
        "addr:housenumber": "189",
        "addr:postcode": "12055",
        "addr:street": "Karl-Marx-Straße",
        "addr:suburb": "Neukölln",
        "entrance": "yes"
      },
      "geometry": {
        "type": "Point",
        "coordinates": [
          13.441057,
          52.4732533
        ]
      },
      "id": "node/503542139"
    },
    {
      "type": "Feature",
      "properties": {
        "@id": "node/503676657",
        "entrance": "yes"
      },
      "geometry": {
        "type": "Point",
        "coordinates": [
          13.4550402,
          52.4732321
        ]
      },
      "id": "node/503676657"
    },
    {
      "type": "Feature",
      "properties": {
        "@id": "node/503676659",
        "entrance": "yes"
      },
      "geometry": {
        "type": "Point",
        "coordinates": [
          13.4551282,
          52.4732394
        ]
      },
      "id": "node/503676659"
    },
    {
      "type": "Feature",
      "properties": {
        "@id": "node/503676660",
        "entrance": "yes"
      },
      "geometry": {
        "type": "Point",
        "coordinates": [
          13.4552316,
          52.4732343
        ]
      },
      "id": "node/503676660"
    },
    {
      "type": "Feature",
      "properties": {
        "@id": "node/503676661",
        "entrance": "yes"
      },
      "geometry": {
        "type": "Point",
        "coordinates": [
          13.4552733,
          52.4732286
        ]
      },
      "id": "node/503676661"
    },
    {
      "type": "Feature",
      "properties": {
        "@id": "node/506409307",
        "entrance": "yes",
        "ref": "39"
      },
      "geometry": {
        "type": "Point",
        "coordinates": [
          13.4188121,
          52.4613245
        ]
      },
      "id": "node/506409307"
    },
    {
      "type": "Feature",
      "properties": {
        "@id": "node/506410618",
        "addr:city": "Berlin",
        "addr:country": "DE",
        "addr:housenumber": "215",
        "addr:postcode": "12055",
        "addr:street": "Karl-Marx-Straße",
        "addr:suburb": "Neukölln",
        "entrance": "yes"
      },
      "geometry": {
        "type": "Point",
        "coordinates": [
          13.4416779,
          52.47066
        ]
      },
      "id": "node/506410618"
    },
    {
      "type": "Feature",
      "properties": {
        "@id": "node/506648927",
        "addr:city": "Berlin",
        "addr:country": "DE",
        "addr:housenumber": "35",
        "addr:postcode": "12057",
        "addr:street": "Planetenstraße",
        "addr:suburb": "Neukölln",
        "entrance": "yes"
      },
      "geometry": {
        "type": "Point",
        "coordinates": [
          13.4700904,
          52.4694696
        ]
      },
      "id": "node/506648927"
    },
    {
      "type": "Feature",
      "properties": {
        "@id": "node/512548104",
        "addr:city": "Berlin",
        "addr:country": "DE",
        "addr:housenumber": "5",
        "addr:postcode": "12347",
        "addr:street": "Britzer Damm",
        "addr:suburb": "Britz",
        "entrance": "main"
      },
      "geometry": {
        "type": "Point",
        "coordinates": [
          13.4347008,
          52.462501
        ]
      },
      "id": "node/512548104"
    },
    {
      "type": "Feature",
      "properties": {
        "@id": "node/513958819",
        "addr:city": "Berlin",
        "addr:country": "DE",
        "addr:housenumber": "208",
        "addr:postcode": "12055",
        "addr:street": "Karl-Marx-Straße",
        "addr:suburb": "Neukölln",
        "entrance": "yes"
      },
      "geometry": {
        "type": "Point",
        "coordinates": [
          13.4411122,
          52.4715319
        ]
      },
      "id": "node/513958819"
    },
    {
      "type": "Feature",
      "properties": {
        "@id": "node/513958820",
        "addr:city": "Berlin",
        "addr:country": "DE",
        "addr:housenumber": "200",
        "addr:postcode": "12055",
        "addr:street": "Karl-Marx-Straße",
        "addr:suburb": "Neukölln",
        "entrance": "yes"
      },
      "geometry": {
        "type": "Point",
        "coordinates": [
          13.4410082,
          52.4721443
        ]
      },
      "id": "node/513958820"
    },
    {
      "type": "Feature",
      "properties": {
        "@id": "node/515662589",
        "access": "yes",
        "amenity": "parking_entrance",
        "entrance": "service",
        "fee": "yes",
        "maxheight": "2.1",
        "parking": "multi-storey",
        "wheelchair": "yes"
      },
      "geometry": {
        "type": "Point",
        "coordinates": [
          13.4582536,
          52.490956
        ]
      },
      "id": "node/515662589"
    },
    {
      "type": "Feature",
      "properties": {
        "@id": "node/515662998",
        "entrance": "exit",
        "foot": "no"
      },
      "geometry": {
        "type": "Point",
        "coordinates": [
          13.4564374,
          52.490342
        ]
      },
      "id": "node/515662998"
    },
    {
      "type": "Feature",
      "properties": {
        "@id": "node/539527445",
        "addr:city": "Berlin",
        "addr:country": "DE",
        "addr:housenumber": "24",
        "addr:postcode": "12047",
        "addr:street": "Hobrechtstraße",
        "addr:suburb": "Neukölln",
        "entrance": "yes"
      },
      "geometry": {
        "type": "Point",
        "coordinates": [
          13.4264233,
          52.4903841
        ]
      },
      "id": "node/539527445"
    },
    {
      "type": "Feature",
      "properties": {
        "@id": "node/566385209",
        "entrance": "yes",
        "level": "0"
      },
      "geometry": {
        "type": "Point",
        "coordinates": [
          13.4280038,
          52.4789821
        ]
      },
      "id": "node/566385209"
    },
    {
      "type": "Feature",
      "properties": {
        "@id": "node/567575235",
        "addr:city": "Berlin",
        "addr:country": "DE",
        "addr:housenumber": "57",
        "addr:postcode": "12047",
        "addr:street": "Hobrechtstraße",
        "addr:suburb": "Neukölln",
        "entrance": "yes"
      },
      "geometry": {
        "type": "Point",
        "coordinates": [
          13.4259352,
          52.4911401
        ]
      },
      "id": "node/567575235"
    },
    {
      "type": "Feature",
      "properties": {
        "@id": "node/599970134",
        "entrance": "yes"
      },
      "geometry": {
        "type": "Point",
        "coordinates": [
          13.448947,
          52.4758029
        ]
      },
      "id": "node/599970134"
    },
    {
      "type": "Feature",
      "properties": {
        "@id": "node/613406030",
        "entrance": "yes",
        "entrance_marker:subway": "yes",
        "name": "Grenzallee",
        "railway": "subway_entrance",
        "wheelchair": "no"
      },
      "geometry": {
        "type": "Point",
        "coordinates": [
          13.4455191,
          52.4621616
        ]
      },
      "id": "node/613406030"
    },
    {
      "type": "Feature",
      "properties": {
        "@id": "node/613406038",
        "entrance": "yes",
        "entrance_marker:subway": "yes",
        "name": "Grenzallee",
        "railway": "subway_entrance",
        "wheelchair": "no"
      },
      "geometry": {
        "type": "Point",
        "coordinates": [
          13.4441506,
          52.463481
        ]
      },
      "id": "node/613406038"
    },
    {
      "type": "Feature",
      "properties": {
        "@id": "node/615020644",
        "entrance": "yes",
        "wheelchair": "limited"
      },
      "geometry": {
        "type": "Point",
        "coordinates": [
          13.4404027,
          52.4991013
        ]
      },
      "id": "node/615020644"
    },
    {
      "type": "Feature",
      "properties": {
        "@id": "node/621888108",
        "entrance": "yes",
        "entrance_marker:subway": "yes",
        "level": "0",
        "name": "Hermannstraße",
        "public_transport": "entrance",
        "railway": "subway_entrance",
        "wheelchair": "no"
      },
      "geometry": {
        "type": "Point",
        "coordinates": [
          13.4312668,
          52.4672038
        ]
      },
      "id": "node/621888108"
    },
    {
      "type": "Feature",
      "properties": {
        "@id": "node/621888112",
        "entrance": "yes",
        "entrance_marker:s-train": "yes",
        "level": "0",
        "name": "S+U Hermannstraße",
        "public_transport": "entrance",
        "wheelchair": "yes"
      },
      "geometry": {
        "type": "Point",
        "coordinates": [
          13.4314512,
          52.4676683
        ]
      },
      "id": "node/621888112"
    },
    {
      "type": "Feature",
      "properties": {
        "@id": "node/623932082",
        "entrance": "yes",
        "entrance_marker:subway": "yes",
        "name": "Karl-Marx-Straße",
        "railway": "subway_entrance",
        "wheelchair": "no"
      },
      "geometry": {
        "type": "Point",
        "coordinates": [
          13.4394977,
          52.4759366
        ]
      },
      "id": "node/623932082"
    },
    {
      "type": "Feature",
      "properties": {
        "@id": "node/623932089",
        "entrance": "yes",
        "entrance_marker:subway": "yes",
        "name": "Karl-Marx-Straße",
        "railway": "subway_entrance",
        "wheelchair": "no"
      },
      "geometry": {
        "type": "Point",
        "coordinates": [
          13.4388891,
          52.4770968
        ]
      },
      "id": "node/623932089"
    },
    {
      "type": "Feature",
      "properties": {
        "@id": "node/655145014",
        "addr:city": "Berlin",
        "addr:country": "DE",
        "addr:housenumber": "5",
        "addr:postcode": "10317",
        "addr:street": "Hauptstraße",
        "addr:suburb": "Rummelsburg",
        "entrance": "yes",
        "wheelchair": "yes"
      },
      "geometry": {
        "type": "Point",
        "coordinates": [
          13.4773548,
          52.5002044
        ]
      },
      "id": "node/655145014"
    },
    {
      "type": "Feature",
      "properties": {
        "@id": "node/655145015",
        "addr:city": "Berlin",
        "addr:country": "DE",
        "addr:housenumber": "4b",
        "addr:postcode": "10317",
        "addr:street": "Hauptstraße",
        "addr:suburb": "Rummelsburg",
        "entrance": "yes"
      },
      "geometry": {
        "type": "Point",
        "coordinates": [
          13.4767057,
          52.5004985
        ]
      },
      "id": "node/655145015"
    },
    {
      "type": "Feature",
      "properties": {
        "@id": "node/655145016",
        "addr:city": "Berlin",
        "addr:country": "DE",
        "addr:housenumber": "4a",
        "addr:postcode": "10317",
        "addr:street": "Hauptstraße",
        "addr:suburb": "Rummelsburg",
        "entrance": "yes"
      },
      "geometry": {
        "type": "Point",
        "coordinates": [
          13.4765187,
          52.5005823
        ]
      },
      "id": "node/655145016"
    },
    {
      "type": "Feature",
      "properties": {
        "@id": "node/655145018",
        "addr:city": "Berlin",
        "addr:country": "DE",
        "addr:housenumber": "4",
        "addr:postcode": "10317",
        "addr:street": "Hauptstraße",
        "addr:suburb": "Rummelsburg",
        "entrance": "yes"
      },
      "geometry": {
        "type": "Point",
        "coordinates": [
          13.4763205,
          52.5006712
        ]
      },
      "id": "node/655145018"
    },
    {
      "type": "Feature",
      "properties": {
        "@id": "node/655145019",
        "addr:city": "Berlin",
        "addr:country": "DE",
        "addr:housenumber": "6E",
        "addr:postcode": "10317",
        "addr:street": "Hauptstraße",
        "addr:suburb": "Rummelsburg",
        "entrance": "yes"
      },
      "geometry": {
        "type": "Point",
        "coordinates": [
          13.4798602,
          52.4990755
        ]
      },
      "id": "node/655145019"
    },
    {
      "type": "Feature",
      "properties": {
        "@id": "node/655145020",
        "addr:city": "Berlin",
        "addr:country": "DE",
        "addr:housenumber": "6B",
        "addr:postcode": "10317",
        "addr:street": "Hauptstraße",
        "addr:suburb": "Rummelsburg",
        "entrance": "yes"
      },
      "geometry": {
        "type": "Point",
        "coordinates": [
          13.4793092,
          52.4993234
        ]
      },
      "id": "node/655145020"
    },
    {
      "type": "Feature",
      "properties": {
        "@id": "node/655145021",
        "addr:city": "Berlin",
        "addr:country": "DE",
        "addr:housenumber": "6C",
        "addr:postcode": "10317",
        "addr:street": "Hauptstraße",
        "addr:suburb": "Rummelsburg",
        "entrance": "yes"
      },
      "geometry": {
        "type": "Point",
        "coordinates": [
          13.479514,
          52.4992312
        ]
      },
      "id": "node/655145021"
    },
    {
      "type": "Feature",
      "properties": {
        "@id": "node/655145022",
        "addr:city": "Berlin",
        "addr:country": "DE",
        "addr:housenumber": "6D",
        "addr:postcode": "10317",
        "addr:street": "Hauptstraße",
        "addr:suburb": "Rummelsburg",
        "entrance": "yes"
      },
      "geometry": {
        "type": "Point",
        "coordinates": [
          13.4796901,
          52.499152
        ]
      },
      "id": "node/655145022"
    },
    {
      "type": "Feature",
      "properties": {
        "@id": "node/655145023",
        "addr:city": "Berlin",
        "addr:country": "DE",
        "addr:housenumber": "6A",
        "addr:postcode": "10317",
        "addr:street": "Hauptstraße",
        "addr:suburb": "Rummelsburg",
        "entrance": "yes"
      },
      "geometry": {
        "type": "Point",
        "coordinates": [
          13.478861,
          52.4995263
        ]
      },
      "id": "node/655145023"
    },
    {
      "type": "Feature",
      "properties": {
        "@id": "node/655145024",
        "addr:city": "Berlin",
        "addr:country": "DE",
        "addr:housenumber": "5C",
        "addr:postcode": "10317",
        "addr:street": "Hauptstraße",
        "addr:suburb": "Rummelsburg",
        "entrance": "yes"
      },
      "geometry": {
        "type": "Point",
        "coordinates": [
          13.4778835,
          52.4999662
        ]
      },
      "id": "node/655145024"
    },
    {
      "type": "Feature",
      "properties": {
        "@id": "node/655145025",
        "addr:city": "Berlin",
        "addr:country": "DE",
        "addr:housenumber": "5B",
        "addr:postcode": "10317",
        "addr:street": "Hauptstraße",
        "addr:suburb": "Rummelsburg",
        "amenity": "dentist",
        "contact:phone": "+49 30 +5589089",
        "entrance": "yes",
        "healthcare": "dentist",
        "name": "Zahnarzt Dr. Kalinke",
        "opening_hours": "Mo,Th 08:00-16:00; Tu 08:00-16:00; Fr 08:00-13:00",
        "operator": "Dr. med. Joachim Kalinke",
        "wheelchair": "yes"
      },
      "geometry": {
        "type": "Point",
        "coordinates": [
          13.4777222,
          52.5000343
        ]
      },
      "id": "node/655145025"
    },
    {
      "type": "Feature",
      "properties": {
        "@id": "node/655145026",
        "addr:city": "Berlin",
        "addr:country": "DE",
        "addr:housenumber": "5A",
        "addr:postcode": "10317",
        "addr:street": "Hauptstraße",
        "addr:suburb": "Rummelsburg",
        "entrance": "yes"
      },
      "geometry": {
        "type": "Point",
        "coordinates": [
          13.4775102,
          52.5001344
        ]
      },
      "id": "node/655145026"
    },
    {
      "type": "Feature",
      "properties": {
        "@id": "node/655145027",
        "addr:city": "Berlin",
        "addr:country": "DE",
        "addr:housenumber": "5E",
        "addr:postcode": "10317",
        "addr:street": "Hauptstraße",
        "addr:suburb": "Rummelsburg",
        "entrance": "yes"
      },
      "geometry": {
        "type": "Point",
        "coordinates": [
          13.4785044,
          52.4996869
        ]
      },
      "id": "node/655145027"
    },
    {
      "type": "Feature",
      "properties": {
        "@id": "node/655145028",
        "addr:city": "Berlin",
        "addr:country": "DE",
        "addr:housenumber": "5D",
        "addr:postcode": "10317",
        "addr:street": "Hauptstraße",
        "addr:suburb": "Rummelsburg",
        "entrance": "yes"
      },
      "geometry": {
        "type": "Point",
        "coordinates": [
          13.4783585,
          52.4997526
        ]
      },
      "id": "node/655145028"
    },
    {
      "type": "Feature",
      "properties": {
        "@id": "node/655145029",
        "addr:city": "Berlin",
        "addr:country": "DE",
        "addr:housenumber": "6",
        "addr:postcode": "10317",
        "addr:street": "Hauptstraße",
        "addr:suburb": "Rummelsburg",
        "entrance": "yes"
      },
      "geometry": {
        "type": "Point",
        "coordinates": [
          13.4787163,
          52.4995917
        ]
      },
      "id": "node/655145029"
    },
    {
      "type": "Feature",
      "properties": {
        "@id": "node/656289021",
        "addr:city": "Berlin",
        "addr:country": "DE",
        "addr:housenumber": "5P",
        "addr:postcode": "10317",
        "addr:street": "Hauptstraße",
        "addr:suburb": "Rummelsburg",
        "entrance": "yes"
      },
      "geometry": {
        "type": "Point",
        "coordinates": [
          13.476917,
          52.4999678
        ]
      },
      "id": "node/656289021"
    },
    {
      "type": "Feature",
      "properties": {
        "@id": "node/656289022",
        "addr:city": "Berlin",
        "addr:country": "DE",
        "addr:housenumber": "5O",
        "addr:postcode": "10317",
        "addr:street": "Hauptstraße",
        "addr:suburb": "Rummelsburg",
        "entrance": "yes"
      },
      "geometry": {
        "type": "Point",
        "coordinates": [
          13.47702,
          52.5000525
        ]
      },
      "id": "node/656289022"
    },
    {
      "type": "Feature",
      "properties": {
        "@id": "node/660785930",
        "entrance": "main"
      },
      "geometry": {
        "type": "Point",
        "coordinates": [
          13.4309784,
          52.4999314
        ]
      },
      "id": "node/660785930"
    },
    {
      "type": "Feature",
      "properties": {
        "@id": "node/671702611",
        "addr:city": "Berlin",
        "addr:country": "DE",
        "addr:housenumber": "5G",
        "addr:postcode": "10317",
        "addr:street": "Hauptstraße",
        "addr:suburb": "Rummelsburg",
        "entrance": "yes"
      },
      "geometry": {
        "type": "Point",
        "coordinates": [
          13.4779024,
          52.499524
        ]
      },
      "id": "node/671702611"
    },
    {
      "type": "Feature",
      "properties": {
        "@id": "node/671702613",
        "addr:city": "Berlin",
        "addr:country": "DE",
        "addr:housenumber": "6P",
        "addr:postcode": "10317",
        "addr:street": "Hauptstraße",
        "addr:suburb": "Rummelsburg",
        "entrance": "yes"
      },
      "geometry": {
        "type": "Point",
        "coordinates": [
          13.4786439,
          52.4991861
        ]
      },
      "id": "node/671702613"
    },
    {
      "type": "Feature",
      "properties": {
        "@id": "node/671702617",
        "addr:city": "Berlin",
        "addr:country": "DE",
        "addr:housenumber": "6G",
        "addr:postcode": "10317",
        "addr:street": "Hauptstraße",
        "addr:suburb": "Rummelsburg",
        "entrance": "yes"
      },
      "geometry": {
        "type": "Point",
        "coordinates": [
          13.4796271,
          52.498742
        ]
      },
      "id": "node/671702617"
    },
    {
      "type": "Feature",
      "properties": {
        "@id": "node/671702618",
        "addr:city": "Berlin",
        "addr:country": "DE",
        "addr:housenumber": "6M",
        "addr:postcode": "10317",
        "addr:street": "Hauptstraße",
        "addr:suburb": "Rummelsburg",
        "entrance": "yes"
      },
      "geometry": {
        "type": "Point",
        "coordinates": [
          13.4788783,
          52.4990773
        ]
      },
      "id": "node/671702618"
    },
    {
      "type": "Feature",
      "properties": {
        "@id": "node/671702619",
        "addr:city": "Berlin",
        "addr:country": "DE",
        "addr:housenumber": "6N",
        "addr:postcode": "10317",
        "addr:street": "Hauptstraße",
        "addr:suburb": "Rummelsburg",
        "entrance": "yes"
      },
      "geometry": {
        "type": "Point",
        "coordinates": [
          13.4789999,
          52.4991774
        ]
      },
      "id": "node/671702619"
    },
    {
      "type": "Feature",
      "properties": {
        "@id": "node/671702620",
        "addr:city": "Berlin",
        "addr:country": "DE",
        "addr:housenumber": "6O",
        "addr:postcode": "10317",
        "addr:street": "Hauptstraße",
        "addr:suburb": "Rummelsburg",
        "entrance": "yes"
      },
      "geometry": {
        "type": "Point",
        "coordinates": [
          13.478746,
          52.4992701
        ]
      },
      "id": "node/671702620"
    },
    {
      "type": "Feature",
      "properties": {
        "@id": "node/671702621",
        "addr:city": "Berlin",
        "addr:country": "DE",
        "addr:housenumber": "6F",
        "addr:postcode": "10317",
        "addr:street": "Hauptstraße",
        "addr:suburb": "Rummelsburg",
        "entrance": "yes"
      },
      "geometry": {
        "type": "Point",
        "coordinates": [
          13.479742,
          52.4988384
        ]
      },
      "id": "node/671702621"
    },
    {
      "type": "Feature",
      "properties": {
        "@id": "node/671702623",
        "addr:city": "Berlin",
        "addr:country": "DE",
        "addr:housenumber": "5F",
        "addr:postcode": "10317",
        "addr:street": "Hauptstraße",
        "addr:suburb": "Rummelsburg",
        "entrance": "yes"
      },
      "geometry": {
        "type": "Point",
        "coordinates": [
          13.478007,
          52.4996101
        ]
      },
      "id": "node/671702623"
    },
    {
      "type": "Feature",
      "properties": {
        "@id": "node/671702624",
        "addr:city": "Berlin",
        "addr:country": "DE",
        "addr:housenumber": "5M",
        "addr:postcode": "10317",
        "addr:street": "Hauptstraße",
        "addr:suburb": "Rummelsburg",
        "entrance": "yes"
      },
      "geometry": {
        "type": "Point",
        "coordinates": [
          13.4776609,
          52.4996296
        ]
      },
      "id": "node/671702624"
    },
    {
      "type": "Feature",
      "properties": {
        "@id": "node/671702625",
        "addr:city": "Berlin",
        "addr:country": "DE",
        "addr:housenumber": "5N",
        "addr:postcode": "10317",
        "addr:street": "Hauptstraße",
        "addr:suburb": "Rummelsburg",
        "entrance": "yes"
      },
      "geometry": {
        "type": "Point",
        "coordinates": [
          13.4777629,
          52.4997135
        ]
      },
      "id": "node/671702625"
    },
    {
      "type": "Feature",
      "properties": {
        "@id": "node/688755759",
        "addr:city": "Berlin",
        "addr:country": "DE",
        "addr:housenumber": "21A",
        "addr:postcode": "12359",
        "addr:street": "Buschkrugallee",
        "addr:suburb": "Britz",
        "entrance": "yes"
      },
      "geometry": {
        "type": "Point",
        "coordinates": [
          13.4465279,
          52.4625466
        ]
      },
      "id": "node/688755759"
    },
    {
      "type": "Feature",
      "properties": {
        "@id": "node/689103147",
        "addr:city": "Berlin",
        "addr:country": "DE",
        "addr:housenumber": "1",
        "addr:postcode": "12359",
        "addr:street": "Woermannkehre",
        "addr:suburb": "Britz",
        "entrance": "main"
      },
      "geometry": {
        "type": "Point",
        "coordinates": [
          13.4511749,
          52.4622844
        ]
      },
      "id": "node/689103147"
    },
    {
      "type": "Feature",
      "properties": {
        "@id": "node/731540385",
        "access": "yes",
        "barrier": "gate",
        "entrance": "yes",
        "motor_vehicle": "no",
        "note": "Bei Änderungen der Öffnungszeiten diese bitte jeweils an allen 10 Eingängen zum Tempelhofer Feld anpassen.",
        "opening_hours": "Dec-Jan 07:30-17:00; Feb,Nov 07:00-18:00; Mar 06:00-19:00; Apr 06:00-20:30; May 1-15 06:00-21:30; May 16-31 06:00-22:00; Jun-Jul 06:00-23:00; Aug 06:00-22:30; Sep 06:30-21:30; Oct 07:00-19:00",
        "opening_hours:url": "http://www.tempelhofer-park.de/oeffnungszeiten/"
      },
      "geometry": {
        "type": "Point",
        "coordinates": [
          13.4189384,
          52.4751438
        ]
      },
      "id": "node/731540385"
    },
    {
      "type": "Feature",
      "properties": {
        "@id": "node/733747683",
        "addr:city": "Berlin",
        "addr:country": "DE",
        "addr:housenumber": "28",
        "addr:postcode": "12045",
        "addr:street": "Weichselstraße",
        "addr:suburb": "Neukölln",
        "entrance": "yes"
      },
      "geometry": {
        "type": "Point",
        "coordinates": [
          13.4372303,
          52.4873846
        ]
      },
      "id": "node/733747683"
    },
    {
      "type": "Feature",
      "properties": {
        "@id": "node/733748460",
        "addr:city": "Berlin",
        "addr:country": "DE",
        "addr:housenumber": "26",
        "addr:postcode": "12045",
        "addr:street": "Weichselstraße",
        "addr:suburb": "Neukölln",
        "entrance": "yes"
      },
      "geometry": {
        "type": "Point",
        "coordinates": [
          13.4370683,
          52.4872616
        ]
      },
      "id": "node/733748460"
    },
    {
      "type": "Feature",
      "properties": {
        "@id": "node/754687897",
        "entrance": "main"
      },
      "geometry": {
        "type": "Point",
        "coordinates": [
          13.431954,
          52.4977239
        ]
      },
      "id": "node/754687897"
    },
    {
      "type": "Feature",
      "properties": {
        "@id": "node/778141564",
        "addr:city": "Berlin",
        "addr:country": "DE",
        "addr:housenumber": "32",
        "addr:postcode": "10245",
        "addr:street": "Markgrafendamm",
        "addr:suburb": "Friedrichshain",
        "entrance": "yes"
      },
      "geometry": {
        "type": "Point",
        "coordinates": [
          13.4649946,
          52.4985044
        ]
      },
      "id": "node/778141564"
    },
    {
      "type": "Feature",
      "properties": {
        "@id": "node/825188323",
        "access": "yes",
        "entrance": "main",
        "level": "0",
        "wheelchair": "yes"
      },
      "geometry": {
        "type": "Point",
        "coordinates": [
          13.3925348,
          52.4967515
        ]
      },
      "id": "node/825188323"
    },
    {
      "type": "Feature",
      "properties": {
        "@id": "node/883518611",
        "addr:city": "Berlin",
        "addr:country": "DE",
        "addr:housenumber": "67",
        "addr:postcode": "10967",
        "addr:street": "Graefestraße",
        "addr:suburb": "Kreuzberg",
        "entrance": "yes"
      },
      "geometry": {
        "type": "Point",
        "coordinates": [
          13.4167299,
          52.491454
        ]
      },
      "id": "node/883518611"
    },
    {
      "type": "Feature",
      "properties": {
        "@id": "node/886003822",
        "entrance": "main"
      },
      "geometry": {
        "type": "Point",
        "coordinates": [
          13.4309996,
          52.4997444
        ]
      },
      "id": "node/886003822"
    },
    {
      "type": "Feature",
      "properties": {
        "@id": "node/896135953",
        "entrance": "yes"
      },
      "geometry": {
        "type": "Point",
        "coordinates": [
          13.4296077,
          52.488233
        ]
      },
      "id": "node/896135953"
    },
    {
      "type": "Feature",
      "properties": {
        "@id": "node/931622716",
        "access": "yes",
        "addr:city": "Berlin",
        "addr:country": "DE",
        "addr:housenumber": "80",
        "addr:postcode": "12045",
        "addr:street": "Wildenbruchstraße",
        "addr:suburb": "Neukölln",
        "entrance": "yes"
      },
      "geometry": {
        "type": "Point",
        "coordinates": [
          13.4432464,
          52.4841862
        ]
      },
      "id": "node/931622716"
    },
    {
      "type": "Feature",
      "properties": {
        "@id": "node/931622717",
        "access": "yes",
        "addr:city": "Berlin",
        "addr:country": "DE",
        "addr:housenumber": "79",
        "addr:postcode": "12045",
        "addr:street": "Wildenbruchstraße",
        "addr:suburb": "Neukölln",
        "entrance": "yes"
      },
      "geometry": {
        "type": "Point",
        "coordinates": [
          13.4434362,
          52.4843293
        ]
      },
      "id": "node/931622717"
    },
    {
      "type": "Feature",
      "properties": {
        "@id": "node/931622751",
        "access": "private",
        "addr:city": "Berlin",
        "addr:country": "DE",
        "addr:housenumber": "77",
        "addr:postcode": "12045",
        "addr:street": "Wildenbruchstraße",
        "addr:suburb": "Neukölln",
        "entrance": "yes"
      },
      "geometry": {
        "type": "Point",
        "coordinates": [
          13.4436695,
          52.484505
        ]
      },
      "id": "node/931622751"
    },
    {
      "type": "Feature",
      "properties": {
        "@id": "node/936992237",
        "access": "yes",
        "barrier": "gate",
        "emergency": "yes",
        "entrance": "yes",
        "maxheight": "4.8",
        "motor_vehicle": "private",
        "name": "Tor 4a Columbiadamm",
        "note": "Bei Änderungen der Öffnungszeiten diese bitte jeweils an allen 10 Eingängen zum Tempelhofer Feld anpassen.",
        "opening_hours": "Dec-Jan 07:30-17:00; Feb,Nov 07:00-18:00; Mar 06:00-19:00; Apr 06:00-20:30; May 1-15 06:00-21:30; May 16-31 06:00-22:00; Jun-Jul 06:00-23:00; Aug 06:00-22:30; Sep 06:30-21:30; Oct 07:00-19:00",
        "opening_hours:url": "http://www.tempelhofer-park.de/oeffnungszeiten/"
      },
      "geometry": {
        "type": "Point",
        "coordinates": [
          13.4027717,
          52.4832126
        ]
      },
      "id": "node/936992237"
    },
    {
      "type": "Feature",
      "properties": {
        "@id": "node/937388364",
        "addr:city": "Berlin",
        "addr:country": "DE",
        "addr:housenumber": "3",
        "addr:postcode": "12055",
        "addr:street": "Richardplatz",
        "addr:suburb": "Neukölln",
        "entrance": "yes"
      },
      "geometry": {
        "type": "Point",
        "coordinates": [
          13.4461649,
          52.4745274
        ]
      },
      "id": "node/937388364"
    },
    {
      "type": "Feature",
      "properties": {
        "@id": "node/937388380",
        "addr:city": "Berlin",
        "addr:country": "DE",
        "addr:housenumber": "3A",
        "addr:postcode": "12055",
        "addr:street": "Richardplatz",
        "addr:suburb": "Neukölln",
        "entrance": "yes"
      },
      "geometry": {
        "type": "Point",
        "coordinates": [
          13.4461139,
          52.4745144
        ]
      },
      "id": "node/937388380"
    },
    {
      "type": "Feature",
      "properties": {
        "@id": "node/941375662",
        "access": "private",
        "addr:city": "Berlin",
        "addr:country": "DE",
        "addr:housenumber": "80A",
        "addr:postcode": "12045",
        "addr:street": "Wildenbruchstraße",
        "addr:suburb": "Neukölln",
        "entrance": "yes"
      },
      "geometry": {
        "type": "Point",
        "coordinates": [
          13.4430422,
          52.4840323
        ]
      },
      "id": "node/941375662"
    },
    {
      "type": "Feature",
      "properties": {
        "@id": "node/968928565",
        "access": "private",
        "entrance": "yes"
      },
      "geometry": {
        "type": "Point",
        "coordinates": [
          13.4120218,
          52.4784379
        ]
      },
      "id": "node/968928565"
    },
    {
      "type": "Feature",
      "properties": {
        "@id": "node/1049935567",
        "addr:city": "Berlin",
        "addr:country": "DE",
        "addr:housenumber": "26",
        "addr:postcode": "12053",
        "addr:street": "Kopfstraße",
        "addr:suburb": "Neukölln",
        "entrance": "yes",
        "level": "1"
      },
      "geometry": {
        "type": "Point",
        "coordinates": [
          13.4280937,
          52.4757742
        ]
      },
      "id": "node/1049935567"
    },
    {
      "type": "Feature",
      "properties": {
        "@id": "node/1110626802",
        "addr:city": "Berlin",
        "addr:country": "DE",
        "addr:housenumber": "18",
        "addr:postcode": "12047",
        "addr:street": "Lenaustraße",
        "addr:suburb": "Neukölln",
        "entrance": "yes"
      },
      "geometry": {
        "type": "Point",
        "coordinates": [
          13.4282423,
          52.4903335
        ]
      },
      "id": "node/1110626802"
    },
    {
      "type": "Feature",
      "properties": {
        "@id": "node/1135508601",
        "access": "yes",
        "entrance": "yes"
      },
      "geometry": {
        "type": "Point",
        "coordinates": [
          13.4218645,
          52.4856275
        ]
      },
      "id": "node/1135508601"
    },
    {
      "type": "Feature",
      "properties": {
        "@id": "node/1214954450",
        "addr:city": "Berlin",
        "addr:country": "DE",
        "addr:housenumber": "32",
        "addr:postcode": "12047",
        "addr:street": "Nansenstraße",
        "addr:suburb": "Neukölln",
        "entrance": "yes",
        "wheelchair": "yes"
      },
      "geometry": {
        "type": "Point",
        "coordinates": [
          13.4313582,
          52.4903488
        ]
      },
      "id": "node/1214954450"
    },
    {
      "type": "Feature",
      "properties": {
        "@id": "node/1214955980",
        "addr:city": "Berlin",
        "addr:country": "DE",
        "addr:housenumber": "31",
        "addr:postcode": "12047",
        "addr:street": "Nansenstraße",
        "addr:suburb": "Neukölln",
        "entrance": "yes",
        "wheelchair": "yes"
      },
      "geometry": {
        "type": "Point",
        "coordinates": [
          13.4314849,
          52.4904772
        ]
      },
      "id": "node/1214955980"
    },
    {
      "type": "Feature",
      "properties": {
        "@id": "node/1225995919",
        "addr:city": "Berlin",
        "addr:country": "DE",
        "addr:housenumber": "20 A1",
        "addr:postcode": "10997",
        "addr:street": "Cuvrystraße",
        "addr:suburb": "Kreuzberg",
        "entrance": "yes"
      },
      "geometry": {
        "type": "Point",
        "coordinates": [
          13.4434349,
          52.4973864
        ]
      },
      "id": "node/1225995919"
    },
    {
      "type": "Feature",
      "properties": {
        "@id": "node/1229176982",
        "entrance_marker:subway": "yes",
        "level": "0",
        "name": "Hermannstraße",
        "public_transport": "entrance",
        "railway": "subway_entrance",
        "wheelchair": "yes"
      },
      "geometry": {
        "type": "Point",
        "coordinates": [
          13.4315953,
          52.466792
        ]
      },
      "id": "node/1229176982"
    },
    {
      "type": "Feature",
      "properties": {
        "@id": "node/1237777045",
        "addr:city": "Berlin",
        "addr:country": "DE",
        "addr:housenumber": "17",
        "addr:postcode": "12047",
        "addr:street": "Sanderstraße",
        "addr:suburb": "Neukölln",
        "entrance": "yes"
      },
      "geometry": {
        "type": "Point",
        "coordinates": [
          13.4275945,
          52.4927046
        ]
      },
      "id": "node/1237777045"
    },
    {
      "type": "Feature",
      "properties": {
        "@id": "node/1243638212",
        "addr:city": "Berlin",
        "addr:country": "DE",
        "addr:housenumber": "13",
        "addr:postcode": "12043",
        "addr:street": "Karl-Marx-Straße",
        "addr:suburb": "Neukölln",
        "entrance": "yes"
      },
      "geometry": {
        "type": "Point",
        "coordinates": [
          13.4263413,
          52.4856274
        ]
      },
      "id": "node/1243638212"
    },
    {
      "type": "Feature",
      "properties": {
        "@id": "node/1244787385",
        "addr:city": "Berlin",
        "addr:country": "DE",
        "addr:housenumber": "8",
        "addr:postcode": "10997",
        "addr:street": "Falckensteinstraße",
        "addr:suburb": "Kreuzberg",
        "entrance": "yes"
      },
      "geometry": {
        "type": "Point",
        "coordinates": [
          13.4426745,
          52.4990312
        ]
      },
      "id": "node/1244787385"
    },
    {
      "type": "Feature",
      "properties": {
        "@id": "node/1244787400",
        "addr:city": "Berlin",
        "addr:country": "DE",
        "addr:housenumber": "6",
        "addr:postcode": "10997",
        "addr:street": "Schlesische Straße",
        "addr:suburb": "Kreuzberg",
        "entrance": "yes"
      },
      "geometry": {
        "type": "Point",
        "coordinates": [
          13.4431181,
          52.5002231
        ]
      },
      "id": "node/1244787400"
    },
    {
      "type": "Feature",
      "properties": {
        "@id": "node/1244787446",
        "addr:city": "Berlin",
        "addr:country": "DE",
        "addr:housenumber": "38",
        "addr:postcode": "10997",
        "addr:street": "Schlesische Straße",
        "addr:suburb": "Kreuzberg",
        "entrance": "yes"
      },
      "geometry": {
        "type": "Point",
        "coordinates": [
          13.444596,
          52.4998638
        ]
      },
      "id": "node/1244787446"
    },
    {
      "type": "Feature",
      "properties": {
        "@id": "node/1244787475",
        "addr:city": "Berlin",
        "addr:country": "DE",
        "addr:housenumber": "46",
        "addr:postcode": "10997",
        "addr:street": "Falckensteinstraße",
        "addr:suburb": "Kreuzberg",
        "entrance": "yes"
      },
      "geometry": {
        "type": "Point",
        "coordinates": [
          13.4444942,
          52.5004978
        ]
      },
      "id": "node/1244787475"
    },
    {
      "type": "Feature",
      "properties": {
        "@id": "node/1244787511",
        "addr:city": "Berlin",
        "addr:country": "DE",
        "addr:housenumber": "4",
        "addr:postcode": "10997",
        "addr:street": "Schlesische Straße",
        "addr:suburb": "Kreuzberg",
        "entrance": "yes"
      },
      "geometry": {
        "type": "Point",
        "coordinates": [
          13.4425576,
          52.500463
        ]
      },
      "id": "node/1244787511"
    },
    {
      "type": "Feature",
      "properties": {
        "@id": "node/1244787618",
        "addr:city": "Berlin",
        "addr:country": "DE",
        "addr:housenumber": "45",
        "addr:postcode": "10997",
        "addr:street": "Falckensteinstraße",
        "addr:suburb": "Kreuzberg",
        "entrance": "yes",
        "name": "Uhren Krüger",
        "shop": "watches"
      },
      "geometry": {
        "type": "Point",
        "coordinates": [
          13.4442966,
          52.5002968
        ]
      },
      "id": "node/1244787618"
    },
    {
      "type": "Feature",
      "properties": {
        "@id": "node/1244787633",
        "addr:city": "Berlin",
        "addr:country": "DE",
        "addr:housenumber": "5",
        "addr:postcode": "10997",
        "addr:street": "Schlesische Straße",
        "addr:suburb": "Kreuzberg",
        "entrance": "yes"
      },
      "geometry": {
        "type": "Point",
        "coordinates": [
          13.4428953,
          52.5003319
        ]
      },
      "id": "node/1244787633"
    },
    {
      "type": "Feature",
      "properties": {
        "@id": "node/1244882817",
        "addr:city": "Berlin",
        "addr:country": "DE",
        "addr:housenumber": "6",
        "addr:postcode": "10997",
        "addr:street": "Cuvrystraße",
        "addr:suburb": "Kreuzberg",
        "entrance": "yes"
      },
      "geometry": {
        "type": "Point",
        "coordinates": [
          13.4456184,
          52.4996045
        ]
      },
      "id": "node/1244882817"
    },
    {
      "type": "Feature",
      "properties": {
        "@id": "node/1244882954",
        "addr:city": "Berlin",
        "addr:country": "DE",
        "addr:housenumber": "35",
        "addr:postcode": "10997",
        "addr:street": "Schlesische Straße",
        "addr:suburb": "Kreuzberg",
        "entrance": "yes"
      },
      "geometry": {
        "type": "Point",
        "coordinates": [
          13.4453445,
          52.499467
        ]
      },
      "id": "node/1244882954"
    },
    {
      "type": "Feature",
      "properties": {
        "@id": "node/1244882977",
        "addr:city": "Berlin",
        "addr:country": "DE",
        "addr:housenumber": "5",
        "addr:postcode": "10997",
        "addr:street": "Cuvrystraße",
        "addr:suburb": "Kreuzberg",
        "entrance": "yes"
      },
      "geometry": {
        "type": "Point",
        "coordinates": [
          13.4456115,
          52.4997931
        ]
      },
      "id": "node/1244882977"
    },
    {
      "type": "Feature",
      "properties": {
        "@id": "node/1244883340",
        "addr:city": "Berlin",
        "addr:country": "DE",
        "addr:housenumber": "36",
        "addr:postcode": "10997",
        "addr:street": "Schlesische Straße",
        "addr:suburb": "Kreuzberg",
        "entrance": "yes"
      },
      "geometry": {
        "type": "Point",
        "coordinates": [
          13.4450274,
          52.4996351
        ]
      },
      "id": "node/1244883340"
    },
    {
      "type": "Feature",
      "properties": {
        "@id": "node/1244883358",
        "addr:city": "Berlin",
        "addr:country": "DE",
        "addr:housenumber": "1",
        "addr:postcode": "10997",
        "addr:street": "Cuvrystraße",
        "addr:suburb": "Kreuzberg",
        "entrance": "yes"
      },
      "geometry": {
        "type": "Point",
        "coordinates": [
          13.44636,
          52.5003619
        ]
      },
      "id": "node/1244883358"
    },
    {
      "type": "Feature",
      "properties": {
        "@id": "node/1244883418",
        "addr:city": "Berlin",
        "addr:country": "DE",
        "addr:housenumber": "35A",
        "addr:postcode": "10997",
        "addr:street": "Schlesische Straße",
        "addr:suburb": "Kreuzberg",
        "entrance": "yes"
      },
      "geometry": {
        "type": "Point",
        "coordinates": [
          13.4452193,
          52.4995334
        ]
      },
      "id": "node/1244883418"
    },
    {
      "type": "Feature",
      "properties": {
        "@id": "node/1245749316",
        "addr:city": "Berlin",
        "addr:country": "DE",
        "addr:housenumber": "10",
        "addr:postcode": "10997",
        "addr:street": "Heckmannufer",
        "addr:suburb": "Kreuzberg",
        "entrance": "yes"
      },
      "geometry": {
        "type": "Point",
        "coordinates": [
          13.4463844,
          52.4961144
        ]
      },
      "id": "node/1245749316"
    },
    {
      "type": "Feature",
      "properties": {
        "@id": "node/1245749535",
        "addr:city": "Berlin",
        "addr:country": "DE",
        "addr:housenumber": "6",
        "addr:postcode": "10997",
        "addr:street": "Heckmannufer",
        "addr:suburb": "Kreuzberg",
        "entrance": "yes"
      },
      "geometry": {
        "type": "Point",
        "coordinates": [
          13.4471591,
          52.4967061
        ]
      },
      "id": "node/1245749535"
    },
    {
      "type": "Feature",
      "properties": {
        "@id": "node/1245749617",
        "addr:city": "Berlin",
        "addr:country": "DE",
        "addr:housenumber": "14",
        "addr:postcode": "10997",
        "addr:street": "Taborstraße",
        "addr:suburb": "Kreuzberg",
        "entrance": "yes"
      },
      "geometry": {
        "type": "Point",
        "coordinates": [
          13.4460716,
          52.4960009
        ]
      },
      "id": "node/1245749617"
    },
    {
      "type": "Feature",
      "properties": {
        "@id": "node/1245749673",
        "addr:city": "Berlin",
        "addr:country": "DE",
        "addr:housenumber": "14a",
        "addr:postcode": "10997",
        "addr:street": "Taborstraße",
        "addr:suburb": "Kreuzberg",
        "entrance": "yes"
      },
      "geometry": {
        "type": "Point",
        "coordinates": [
          13.4459041,
          52.4961733
        ]
      },
      "id": "node/1245749673"
    },
    {
      "type": "Feature",
      "properties": {
        "@id": "node/1245749684",
        "addr:city": "Berlin",
        "addr:country": "DE",
        "addr:housenumber": "6a",
        "addr:postcode": "10997",
        "addr:street": "Heckmannufer",
        "addr:suburb": "Kreuzberg",
        "entrance": "yes"
      },
      "geometry": {
        "type": "Point",
        "coordinates": [
          13.4470671,
          52.4966369
        ]
      },
      "id": "node/1245749684"
    },
    {
      "type": "Feature",
      "properties": {
        "@id": "node/1246581868",
        "addr:city": "Berlin",
        "addr:country": "DE",
        "addr:housenumber": "5",
        "addr:postcode": "12045",
        "addr:street": "Wildenbruchplatz",
        "addr:suburb": "Neukölln",
        "amenity": "cafe",
        "check_date:diet:vegan": "2022-08-17",
        "contact:email": "homberlin@gmail.com",
        "contact:phone": "+49 30 40749707",
        "contact:website": "http://homcafeberlin.de/",
        "diet:vegan": "yes",
        "diet:vegetarian": "yes",
        "entrance": "yes",
        "name": "hom",
        "opening_hours": "Mo-Su 10:00-19:00",
        "toilets:wheelchair": "no",
        "wheelchair": "limited"
      },
      "geometry": {
        "type": "Point",
        "coordinates": [
          13.4445081,
          52.4835037
        ]
      },
      "id": "node/1246581868"
    },
    {
      "type": "Feature",
      "properties": {
        "@id": "node/1256638844",
        "addr:city": "Berlin",
        "addr:country": "DE",
        "addr:housenumber": "296B",
        "addr:postcode": "12057",
        "addr:street": "Sonnenallee",
        "addr:suburb": "Neukölln",
        "entrance": "yes"
      },
      "geometry": {
        "type": "Point",
        "coordinates": [
          13.4677244,
          52.4675534
        ]
      },
      "id": "node/1256638844"
    },
    {
      "type": "Feature",
      "properties": {
        "@id": "node/1256638845",
        "addr:city": "Berlin",
        "addr:country": "DE",
        "addr:housenumber": "95A",
        "addr:postcode": "12057",
        "addr:street": "Neuköllnische Allee",
        "addr:suburb": "Neukölln",
        "entrance": "yes"
      },
      "geometry": {
        "type": "Point",
        "coordinates": [
          13.4665075,
          52.4654831
        ]
      },
      "id": "node/1256638845"
    },
    {
      "type": "Feature",
      "properties": {
        "@id": "node/1256638846",
        "addr:city": "Berlin",
        "addr:country": "DE",
        "addr:housenumber": "294A",
        "addr:postcode": "12057",
        "addr:street": "Sonnenallee",
        "addr:suburb": "Neukölln",
        "entrance": "yes"
      },
      "geometry": {
        "type": "Point",
        "coordinates": [
          13.4674366,
          52.4678814
        ]
      },
      "id": "node/1256638846"
    },
    {
      "type": "Feature",
      "properties": {
        "@id": "node/1256638847",
        "addr:city": "Berlin",
        "addr:country": "DE",
        "addr:housenumber": "296C",
        "addr:postcode": "12057",
        "addr:street": "Sonnenallee",
        "addr:suburb": "Neukölln",
        "entrance": "yes"
      },
      "geometry": {
        "type": "Point",
        "coordinates": [
          13.4675854,
          52.4674747
        ]
      },
      "id": "node/1256638847"
    },
    {
      "type": "Feature",
      "properties": {
        "@id": "node/1256638849",
        "addr:city": "Berlin",
        "addr:country": "DE",
        "addr:housenumber": "294B",
        "addr:postcode": "12057",
        "addr:street": "Sonnenallee",
        "addr:suburb": "Neukölln",
        "entrance": "yes"
      },
      "geometry": {
        "type": "Point",
        "coordinates": [
          13.4672987,
          52.4678032
        ]
      },
      "id": "node/1256638849"
    },
    {
      "type": "Feature",
      "properties": {
        "@id": "node/1256638851",
        "addr:city": "Berlin",
        "addr:country": "DE",
        "addr:housenumber": "91A",
        "addr:postcode": "12057",
        "addr:street": "Neuköllnische Allee",
        "addr:suburb": "Neukölln",
        "entrance": "yes"
      },
      "geometry": {
        "type": "Point",
        "coordinates": [
          13.4661197,
          52.4656878
        ]
      },
      "id": "node/1256638851"
    },
    {
      "type": "Feature",
      "properties": {
        "@id": "node/1256638852",
        "addr:city": "Berlin",
        "addr:country": "DE",
        "addr:housenumber": "296",
        "addr:postcode": "12057",
        "addr:street": "Sonnenallee",
        "addr:suburb": "Neukölln",
        "entrance": "yes"
      },
      "geometry": {
        "type": "Point",
        "coordinates": [
          13.4679919,
          52.4677049
        ]
      },
      "id": "node/1256638852"
    },
    {
      "type": "Feature",
      "properties": {
        "@id": "node/1256638853",
        "addr:city": "Berlin",
        "addr:country": "DE",
        "addr:housenumber": "294",
        "addr:postcode": "12057",
        "addr:street": "Sonnenallee",
        "addr:suburb": "Neukölln",
        "entrance": "yes"
      },
      "geometry": {
        "type": "Point",
        "coordinates": [
          13.4675705,
          52.4679573
        ]
      },
      "id": "node/1256638853"
    },
    {
      "type": "Feature",
      "properties": {
        "@id": "node/1256638856",
        "addr:city": "Berlin",
        "addr:country": "DE",
        "addr:housenumber": "294C",
        "addr:postcode": "12057",
        "addr:street": "Sonnenallee",
        "addr:suburb": "Neukölln",
        "entrance": "yes"
      },
      "geometry": {
        "type": "Point",
        "coordinates": [
          13.4671709,
          52.4677307
        ]
      },
      "id": "node/1256638856"
    },
    {
      "type": "Feature",
      "properties": {
        "@id": "node/1256638858",
        "addr:city": "Berlin",
        "addr:country": "DE",
        "addr:housenumber": "91",
        "addr:postcode": "12057",
        "addr:street": "Neuköllnische Allee",
        "addr:suburb": "Neukölln",
        "entrance": "yes"
      },
      "geometry": {
        "type": "Point",
        "coordinates": [
          13.4659626,
          52.4655872
        ]
      },
      "id": "node/1256638858"
    },
    {
      "type": "Feature",
      "properties": {
        "@id": "node/1256638859",
        "addr:city": "Berlin",
        "addr:country": "DE",
        "addr:housenumber": "296A",
        "addr:postcode": "12057",
        "addr:street": "Sonnenallee",
        "addr:suburb": "Neukölln",
        "entrance": "yes"
      },
      "geometry": {
        "type": "Point",
        "coordinates": [
          13.4678636,
          52.4676323
        ]
      },
      "id": "node/1256638859"
    },
    {
      "type": "Feature",
      "properties": {
        "@id": "node/1256638865",
        "addr:city": "Berlin",
        "addr:country": "DE",
        "addr:housenumber": "95",
        "addr:postcode": "12057",
        "addr:street": "Neuköllnische Allee",
        "addr:suburb": "Neukölln",
        "entrance": "yes"
      },
      "geometry": {
        "type": "Point",
        "coordinates": [
          13.4663472,
          52.4653797
        ]
      },
      "id": "node/1256638865"
    },
    {
      "type": "Feature",
      "properties": {
        "@id": "node/1259934139",
        "entrance": "yes"
      },
      "geometry": {
        "type": "Point",
        "coordinates": [
          13.4278553,
          52.4595607
        ]
      },
      "id": "node/1259934139"
    },
    {
      "type": "Feature",
      "properties": {
        "@id": "node/1271973776",
        "addr:city": "Berlin",
        "addr:country": "DE",
        "addr:housenumber": "113a",
        "addr:postcode": "12057",
        "addr:street": "Neuköllnische Allee",
        "addr:suburb": "Neukölln",
        "entrance": "yes"
      },
      "geometry": {
        "type": "Point",
        "coordinates": [
          13.468054,
          52.4645493
        ]
      },
      "id": "node/1271973776"
    },
    {
      "type": "Feature",
      "properties": {
        "@id": "node/1271973777",
        "addr:city": "Berlin",
        "addr:country": "DE",
        "addr:housenumber": "113",
        "addr:postcode": "12057",
        "addr:street": "Neuköllnische Allee",
        "addr:suburb": "Neukölln",
        "entrance": "yes"
      },
      "geometry": {
        "type": "Point",
        "coordinates": [
          13.4679208,
          52.4644671
        ]
      },
      "id": "node/1271973777"
    },
    {
      "type": "Feature",
      "properties": {
        "@id": "node/1271973778",
        "addr:city": "Berlin",
        "addr:country": "DE",
        "addr:housenumber": "113b",
        "addr:postcode": "12057",
        "addr:street": "Neuköllnische Allee",
        "addr:suburb": "Neukölln",
        "entrance": "yes"
      },
      "geometry": {
        "type": "Point",
        "coordinates": [
          13.4681927,
          52.4646348
        ]
      },
      "id": "node/1271973778"
    },
    {
      "type": "Feature",
      "properties": {
        "@id": "node/1271973779",
        "addr:city": "Berlin",
        "addr:country": "DE",
        "addr:housenumber": "113c",
        "addr:postcode": "12057",
        "addr:street": "Neuköllnische Allee",
        "addr:suburb": "Neukölln",
        "entrance": "yes"
      },
      "geometry": {
        "type": "Point",
        "coordinates": [
          13.4683047,
          52.4647039
        ]
      },
      "id": "node/1271973779"
    },
    {
      "type": "Feature",
      "properties": {
        "@id": "node/1274439012",
        "addr:city": "Berlin",
        "addr:country": "DE",
        "addr:housenumber": "39",
        "addr:postcode": "12057",
        "addr:street": "Neuköllnische Allee",
        "addr:suburb": "Neukölln",
        "entrance": "yes"
      },
      "geometry": {
        "type": "Point",
        "coordinates": [
          13.4614924,
          52.4677932
        ]
      },
      "id": "node/1274439012"
    },
    {
      "type": "Feature",
      "properties": {
        "@id": "node/1274439017",
        "addr:city": "Berlin",
        "addr:country": "DE",
        "addr:housenumber": "49",
        "addr:postcode": "12057",
        "addr:street": "Neuköllnische Allee",
        "addr:suburb": "Neukölln",
        "entrance": "yes"
      },
      "geometry": {
        "type": "Point",
        "coordinates": [
          13.4623324,
          52.4673967
        ]
      },
      "id": "node/1274439017"
    },
    {
      "type": "Feature",
      "properties": {
        "@id": "node/1274439019",
        "addr:city": "Berlin",
        "addr:country": "DE",
        "addr:housenumber": "43",
        "addr:postcode": "12057",
        "addr:street": "Neuköllnische Allee",
        "addr:suburb": "Neukölln",
        "entrance": "yes"
      },
      "geometry": {
        "type": "Point",
        "coordinates": [
          13.4618013,
          52.4676189
        ]
      },
      "id": "node/1274439019"
    },
    {
      "type": "Feature",
      "properties": {
        "@id": "node/1274439024",
        "addr:city": "Berlin",
        "addr:country": "DE",
        "addr:housenumber": "47",
        "addr:postcode": "12057",
        "addr:street": "Neuköllnische Allee",
        "addr:suburb": "Neukölln",
        "entrance": "yes"
      },
      "geometry": {
        "type": "Point",
        "coordinates": [
          13.4621806,
          52.4674817
        ]
      },
      "id": "node/1274439024"
    },
    {
      "type": "Feature",
      "properties": {
        "@id": "node/1274439029",
        "addr:city": "Berlin",
        "addr:country": "DE",
        "addr:housenumber": "45",
        "addr:postcode": "12057",
        "addr:street": "Neuköllnische Allee",
        "addr:suburb": "Neukölln",
        "entrance": "yes"
      },
      "geometry": {
        "type": "Point",
        "coordinates": [
          13.4620229,
          52.4675699
        ]
      },
      "id": "node/1274439029"
    },
    {
      "type": "Feature",
      "properties": {
        "@id": "node/1274439038",
        "addr:city": "Berlin",
        "addr:country": "DE",
        "addr:housenumber": "41",
        "addr:postcode": "12057",
        "addr:street": "Neuköllnische Allee",
        "addr:suburb": "Neukölln",
        "entrance": "yes"
      },
      "geometry": {
        "type": "Point",
        "coordinates": [
          13.461646,
          52.4677065
        ]
      },
      "id": "node/1274439038"
    },
    {
      "type": "Feature",
      "properties": {
        "@id": "node/1274458937",
        "addr:city": "Berlin",
        "addr:country": "DE",
        "addr:housenumber": "53A",
        "addr:postcode": "12057",
        "addr:street": "Neuköllnische Allee",
        "addr:suburb": "Neukölln",
        "entrance": "yes"
      },
      "geometry": {
        "type": "Point",
        "coordinates": [
          13.4628865,
          52.4674061
        ]
      },
      "id": "node/1274458937"
    },
    {
      "type": "Feature",
      "properties": {
        "@id": "node/1274458955",
        "addr:city": "Berlin",
        "addr:country": "DE",
        "addr:housenumber": "53",
        "addr:postcode": "12057",
        "addr:street": "Neuköllnische Allee",
        "addr:suburb": "Neukölln",
        "entrance": "yes"
      },
      "geometry": {
        "type": "Point",
        "coordinates": [
          13.4627662,
          52.4673291
        ]
      },
      "id": "node/1274458955"
    },
    {
      "type": "Feature",
      "properties": {
        "@id": "node/1278137085",
        "addr:city": "Berlin",
        "addr:country": "DE",
        "addr:housenumber": "10",
        "addr:postcode": "12057",
        "addr:street": "Heinrich-Schlusnus-Straße",
        "addr:suburb": "Neukölln",
        "entrance": "yes"
      },
      "geometry": {
        "type": "Point",
        "coordinates": [
          13.4701081,
          52.4634443
        ]
      },
      "id": "node/1278137085"
    },
    {
      "type": "Feature",
      "properties": {
        "@id": "node/1278137114",
        "addr:city": "Berlin",
        "addr:country": "DE",
        "addr:housenumber": "8",
        "addr:postcode": "12057",
        "addr:street": "Heinrich-Schlusnus-Straße",
        "addr:suburb": "Neukölln",
        "entrance": "yes"
      },
      "geometry": {
        "type": "Point",
        "coordinates": [
          13.470306,
          52.4638632
        ]
      },
      "id": "node/1278137114"
    },
    {
      "type": "Feature",
      "properties": {
        "@id": "node/1278137126",
        "addr:city": "Berlin",
        "addr:country": "DE",
        "addr:housenumber": "12",
        "addr:postcode": "12057",
        "addr:street": "Heinrich-Schlusnus-Straße",
        "addr:suburb": "Neukölln",
        "entrance": "yes"
      },
      "geometry": {
        "type": "Point",
        "coordinates": [
          13.4702899,
          52.4631148
        ]
      },
      "id": "node/1278137126"
    },
    {
      "type": "Feature",
      "properties": {
        "@id": "node/1278852434",
        "addr:city": "Berlin",
        "addr:country": "DE",
        "addr:housenumber": "49",
        "addr:postcode": "10245",
        "addr:street": "Corinthstraße",
        "addr:suburb": "Friedrichshain",
        "entrance": "yes"
      },
      "geometry": {
        "type": "Point",
        "coordinates": [
          13.4634134,
          52.4995567
        ]
      },
      "id": "node/1278852434"
    },
    {
      "type": "Feature",
      "properties": {
        "@id": "node/1280524160",
        "addr:city": "Berlin",
        "addr:country": "DE",
        "addr:housenumber": "4",
        "addr:postcode": "12057",
        "addr:street": "Einhornstraße",
        "addr:suburb": "Neukölln",
        "entrance": "yes"
      },
      "geometry": {
        "type": "Point",
        "coordinates": [
          13.4663998,
          52.4705146
        ]
      },
      "id": "node/1280524160"
    },
    {
      "type": "Feature",
      "properties": {
        "@id": "node/1280524163",
        "addr:city": "Berlin",
        "addr:country": "DE",
        "addr:housenumber": "2",
        "addr:postcode": "12057",
        "addr:street": "Einhornstraße",
        "addr:suburb": "Neukölln",
        "entrance": "yes"
      },
      "geometry": {
        "type": "Point",
        "coordinates": [
          13.466004,
          52.4703595
        ]
      },
      "id": "node/1280524163"
    },
    {
      "type": "Feature",
      "properties": {
        "@id": "node/1280524164",
        "addr:city": "Berlin",
        "addr:country": "DE",
        "addr:housenumber": "3",
        "addr:postcode": "12057",
        "addr:street": "Einhornstraße",
        "addr:suburb": "Neukölln",
        "entrance": "yes"
      },
      "geometry": {
        "type": "Point",
        "coordinates": [
          13.4662001,
          52.4704364
        ]
      },
      "id": "node/1280524164"
    },
    {
      "type": "Feature",
      "properties": {
        "@id": "node/1280544399",
        "addr:city": "Berlin",
        "addr:country": "DE",
        "addr:housenumber": "24",
        "addr:postcode": "12057",
        "addr:street": "Steinbockstraße",
        "addr:suburb": "Neukölln",
        "entrance": "yes"
      },
      "geometry": {
        "type": "Point",
        "coordinates": [
          13.4683874,
          52.4710222
        ]
      },
      "id": "node/1280544399"
    },
    {
      "type": "Feature",
      "properties": {
        "@id": "node/1280544403",
        "addr:city": "Berlin",
        "addr:country": "DE",
        "addr:housenumber": "25",
        "addr:postcode": "12057",
        "addr:street": "Steinbockstraße",
        "addr:suburb": "Neukölln",
        "entrance": "yes"
      },
      "geometry": {
        "type": "Point",
        "coordinates": [
          13.4681911,
          52.4709541
        ]
      },
      "id": "node/1280544403"
    },
    {
      "type": "Feature",
      "properties": {
        "@id": "node/1286338703",
        "addr:city": "Berlin",
        "addr:country": "DE",
        "addr:housenumber": "25",
        "addr:postcode": "12057",
        "addr:street": "Rübezahlstraße",
        "addr:suburb": "Neukölln",
        "entrance": "yes"
      },
      "geometry": {
        "type": "Point",
        "coordinates": [
          13.4726503,
          52.4692089
        ]
      },
      "id": "node/1286338703"
    },
    {
      "type": "Feature",
      "properties": {
        "@id": "node/1286338712",
        "addr:city": "Berlin",
        "addr:country": "DE",
        "addr:housenumber": "1",
        "addr:postcode": "12057",
        "addr:street": "Rübezahlstraße",
        "addr:suburb": "Neukölln",
        "entrance": "yes"
      },
      "geometry": {
        "type": "Point",
        "coordinates": [
          13.4708291,
          52.4689822
        ]
      },
      "id": "node/1286338712"
    },
    {
      "type": "Feature",
      "properties": {
        "@id": "node/1286338713",
        "addr:city": "Berlin",
        "addr:country": "DE",
        "addr:housenumber": "2",
        "addr:postcode": "12057",
        "addr:street": "Wegastraße",
        "addr:suburb": "Neukölln",
        "entrance": "yes"
      },
      "geometry": {
        "type": "Point",
        "coordinates": [
          13.4729934,
          52.4698337
        ]
      },
      "id": "node/1286338713"
    },
    {
      "type": "Feature",
      "properties": {
        "@id": "node/1286338716",
        "addr:city": "Berlin",
        "addr:country": "DE",
        "addr:housenumber": "4",
        "addr:postcode": "12057",
        "addr:street": "Wegastraße",
        "addr:suburb": "Neukölln",
        "entrance": "yes"
      },
      "geometry": {
        "type": "Point",
        "coordinates": [
          13.4731499,
          52.4696214
        ]
      },
      "id": "node/1286338716"
    },
    {
      "type": "Feature",
      "properties": {
        "@id": "node/1286338724",
        "addr:city": "Berlin",
        "addr:country": "DE",
        "addr:housenumber": "5",
        "addr:postcode": "12057",
        "addr:street": "Wegastraße",
        "addr:suburb": "Neukölln",
        "entrance": "yes"
      },
      "geometry": {
        "type": "Point",
        "coordinates": [
          13.4733005,
          52.4694859
        ]
      },
      "id": "node/1286338724"
    },
    {
      "type": "Feature",
      "properties": {
        "@id": "node/1286338757",
        "addr:city": "Berlin",
        "addr:country": "DE",
        "addr:housenumber": "1",
        "addr:postcode": "12057",
        "addr:street": "Wegastraße",
        "addr:suburb": "Neukölln",
        "entrance": "yes"
      },
      "geometry": {
        "type": "Point",
        "coordinates": [
          13.4728616,
          52.4699096
        ]
      },
      "id": "node/1286338757"
    },
    {
      "type": "Feature",
      "properties": {
        "@id": "node/1286338792",
        "addr:city": "Berlin",
        "addr:country": "DE",
        "addr:housenumber": "5",
        "addr:postcode": "12057",
        "addr:street": "Drosselbartstraße",
        "addr:suburb": "Neukölln",
        "entrance": "yes"
      },
      "geometry": {
        "type": "Point",
        "coordinates": [
          13.4704129,
          52.469106
        ]
      },
      "id": "node/1286338792"
    },
    {
      "type": "Feature",
      "properties": {
        "@id": "node/1286338825",
        "addr:city": "Berlin",
        "addr:country": "DE",
        "addr:housenumber": "27",
        "addr:postcode": "12057",
        "addr:street": "Rübezahlstraße",
        "addr:suburb": "Neukölln",
        "entrance": "yes"
      },
      "geometry": {
        "type": "Point",
        "coordinates": [
          13.4728721,
          52.4693006
        ]
      },
      "id": "node/1286338825"
    },
    {
      "type": "Feature",
      "properties": {
        "@id": "node/1286338828",
        "addr:city": "Berlin",
        "addr:country": "DE",
        "addr:housenumber": "3",
        "addr:postcode": "12057",
        "addr:street": "Wegastraße",
        "addr:suburb": "Neukölln",
        "entrance": "yes"
      },
      "geometry": {
        "type": "Point",
        "coordinates": [
          13.4730586,
          52.4697238
        ]
      },
      "id": "node/1286338828"
    },
    {
      "type": "Feature",
      "properties": {
        "@id": "node/1286338871",
        "addr:city": "Berlin",
        "addr:country": "DE",
        "addr:housenumber": "3",
        "addr:postcode": "12057",
        "addr:street": "Drosselbartstraße",
        "addr:suburb": "Neukölln",
        "entrance": "yes"
      },
      "geometry": {
        "type": "Point",
        "coordinates": [
          13.4702407,
          52.4692192
        ]
      },
      "id": "node/1286338871"
    },
    {
      "type": "Feature",
      "properties": {
        "@id": "node/1286378856",
        "addr:city": "Berlin",
        "addr:country": "DE",
        "addr:housenumber": "22",
        "addr:inclusion": "actual",
        "addr:postcode": "12057",
        "addr:street": "Rübezahlstraße",
        "addr:suburb": "Neukölln",
        "entrance": "yes"
      },
      "geometry": {
        "type": "Point",
        "coordinates": [
          13.4720417,
          52.4687679
        ]
      },
      "id": "node/1286378856"
    },
    {
      "type": "Feature",
      "properties": {
        "@id": "node/1286378858",
        "addr:city": "Berlin",
        "addr:country": "DE",
        "addr:housenumber": "11",
        "addr:postcode": "12057",
        "addr:street": "Gretelstraße",
        "addr:suburb": "Neukölln",
        "entrance": "yes"
      },
      "geometry": {
        "type": "Point",
        "coordinates": [
          13.4731112,
          52.4685869
        ]
      },
      "id": "node/1286378858"
    },
    {
      "type": "Feature",
      "properties": {
        "@id": "node/1286378865",
        "addr:city": "Berlin",
        "addr:country": "DE",
        "addr:housenumber": "1",
        "addr:inclusion": "actual",
        "addr:postcode": "12057",
        "addr:street": "Hänselstraße",
        "addr:suburb": "Neukölln",
        "entrance": "yes"
      },
      "geometry": {
        "type": "Point",
        "coordinates": [
          13.4731564,
          52.4674469
        ]
      },
      "id": "node/1286378865"
    },